[
  {
    "id": "APRA",
    "name": "Apra Harbor",
    "kind": "port",
    "ccdr": "INDOPACOM",
    "country": "Guam (US)",
    "lat": 13.443,
    "lon": 144.66,
    "throughput_tpd": 9800,
    "fuel_storage_kgal": 64000,
    "runway_ft": 0,
    "criticality": 10
  },
  {
    "id": "AAFB",
    "name": "Andersen AFB",
    "kind": "runway",
    "ccdr": "INDOPACOM",
    "country": "Guam (US)",
    "lat": 13.584,
    "lon": 144.93,
    "throughput_tpd": 5200,
    "fuel_storage_kgal": 38000,
    "runway_ft": 11185,
    "criticality": 10
  },
  {
    "id": "NAHA",
    "name": "Naha Port",
    "kind": "port",
    "ccdr": "INDOPACOM",
    "country": "Okinawa (JPN)",
    "lat": 26.214,
    "lon": 127.679,
    "throughput_tpd": 4400,
    "fuel_storage_kgal": 18000,
    "runway_ft": 0,
    "criticality": 8
  },
  {
    "id": "KADENA",
    "name": "Kadena AB",
    "kind": "runway",
    "ccdr": "INDOPACOM",
    "country": "Okinawa (JPN)",
    "lat": 26.355,
    "lon": 127.768,
    "throughput_tpd": 3800,
    "fuel_storage_kgal": 42000,
    "runway_ft": 12100,
    "criticality": 10
  },
  {
    "id": "SUBIC",
    "name": "Subic Bay",
    "kind": "port",
    "ccdr": "INDOPACOM",
    "country": "Philippines",
    "lat": 14.795,
    "lon": 120.282,
    "throughput_tpd": 6100,
    "fuel_storage_kgal": 28000,
    "runway_ft": 8500,
    "criticality": 9
  },
  {
    "id": "TINIAN",
    "name": "Tinian (NMI)",
    "kind": "runway",
    "ccdr": "INDOPACOM",
    "country": "CNMI (US)",
    "lat": 14.998,
    "lon": 145.62,
    "throughput_tpd": 1600,
    "fuel_storage_kgal": 9000,
    "runway_ft": 8500,
    "criticality": 7
  },
  {
    "id": "IWAKUNI",
    "name": "MCAS Iwakuni",
    "kind": "runway",
    "ccdr": "INDOPACOM",
    "country": "Honshu (JPN)",
    "lat": 34.144,
    "lon": 132.235,
    "throughput_tpd": 3200,
    "fuel_storage_kgal": 26000,
    "runway_ft": 8000,
    "criticality": 8
  },
  {
    "id": "SASEBO",
    "name": "Sasebo",
    "kind": "port",
    "ccdr": "INDOPACOM",
    "country": "Kyushu (JPN)",
    "lat": 33.158,
    "lon": 129.722,
    "throughput_tpd": 5400,
    "fuel_storage_kgal": 31000,
    "runway_ft": 0,
    "criticality": 9
  },
  {
    "id": "YOKO",
    "name": "Yokosuka",
    "kind": "port",
    "ccdr": "INDOPACOM",
    "country": "Honshu (JPN)",
    "lat": 35.288,
    "lon": 139.671,
    "throughput_tpd": 8200,
    "fuel_storage_kgal": 56000,
    "runway_ft": 0,
    "criticality": 10
  },
  {
    "id": "PNI",
    "name": "Pohnpei (FSM)",
    "kind": "fuel_terminal",
    "ccdr": "INDOPACOM",
    "country": "Micronesia",
    "lat": 6.971,
    "lon": 158.19,
    "throughput_tpd": 600,
    "fuel_storage_kgal": 4200,
    "runway_ft": 6000,
    "criticality": 5
  },
  {
    "id": "PALAU",
    "name": "Palau",
    "kind": "fuel_terminal",
    "ccdr": "INDOPACOM",
    "country": "Palau",
    "lat": 7.367,
    "lon": 134.544,
    "throughput_tpd": 800,
    "fuel_storage_kgal": 5800,
    "runway_ft": 7200,
    "criticality": 6
  },
  {
    "id": "DGAR",
    "name": "Diego Garcia",
    "kind": "runway",
    "ccdr": "CENTCOM",
    "country": "BIOT (UK/US)",
    "lat": -7.313,
    "lon": 72.411,
    "throughput_tpd": 4900,
    "fuel_storage_kgal": 71000,
    "runway_ft": 12000,
    "criticality": 9
  }
]